
{
  "cities": [
    {
      "name": "New York",
      "latitude": 40.7128,
      "longitude": -74.0060,
      "id": 0
    },
    {
      "name": "Los Angeles",
      "latitude": 34.0522,
      "longitude": -118.2437,
      "id": 1
    },
    {
      "name": "Chicago",
      "latitude": 41.8781,
      "longitude": -87.6298,
      "id": 2
    },
    {
      "name": "Houston",
      "latitude": 29.7604,
      "longitude": -95.3698,
      "id": 3
    },
    {
      "name": "Phoenix",
      "latitude": 33.4484,
      "longitude": -112.0740,
      "id": 4
    },
    {
      "name": "Philadelphia",
      "latitude": 39.9526,
      "longitude": -75.1652,
      "id": 5
    },
    {
      "name": "San Antonio",
      "latitude": 29.4241,
      "longitude": -98.4936,
      "id": 6
    },
    {
      "name": "San Diego",
      "latitude": 32.7157,
      "longitude": -117.1611,
      "id": 7
    },
    {
      "name": "Dallas",
      "latitude": 32.7767,
      "longitude": -96.7970,
      "id": 8
    },
    {
      "name": "San Jose",
      "latitude": 37.3382,
      "longitude": -121.8863,
      "id": 9
    },
    {
      "name": "Austin",
      "latitude": 30.2672,
      "longitude": -97.7431,
      "id": 10
    },
    {
      "name": "Jacksonville",
      "latitude": 30.3322,
      "longitude": -81.6557,
      "id": 11
    },
    {
      "name": "Fort Worth",
      "latitude": 32.7555,
      "longitude": -97.3308,
      "id": 12
    },
    {
      "name": "Columbus",
      "latitude": 39.9612,
      "longitude": -82.9988,
      "id": 13
    },
    {
      "name": "Charlotte",
      "latitude": 35.2271,
      "longitude": -80.8431,
      "id": 14
    }
  ],
  "metadata": {
    "description": "Sample US cities for route optimization testing",
    "coordinate_system": "WGS84",
    "total_cities": 15
  }
}
